{
	"tiks": [
		{
			"lon": 37.0647014,
			"lat": 54.4984525,
			"desc": "ул.Героев Алексинцев, д.10",
			"phone": "8 48753 43169",
			"members": 9,
			"url": "http://www.tula.vybory.izbirkom.ru/region/tula?action=show_komissia&region=71&sub_region=71&type=100&vrnorg=271200070553&vrnkomis=471400212319",
			"name": "Алексинского района Тульской области"
		}
	],
	"uiks": [
		{
			"lon": 36.9886867,
			"lat": 54.4827569,
			"obj": "Дом культуры им. Чехова",
			"addr": "ул. Металлистов, д. 4",
			"phone": "",
			"members": 8,
			"count": 1040,
			"number": "0101"
		},
		{
			"lon": 36.9891431,
			"lat": 54.4828189,
			"obj": "Дом культуры им. Чехова",
			"addr": "ул. Металлистов, д. 4",
			"members": 10,
			"phone": "",
			"count": 1757,
			"number": "0102"
		},
		{
			"lon": 36.9896868,
			"lat": 54.4829825,
			"obj": "МБОУ «Средняя общеобразовательная школа №9»",
			"addr": "Школьная ул., д. 4",
			"members": 8,
			"phone": "",
			"count": 1120,
			"number": "0103"
		},
		{
			"lon": 36.9903083,
			"lat": 54.4831461,
			"obj": "МБОУ «Средняя общеобразовательная школа №9»",
			"addr": "Школьная ул., д. 4",
			"members": 8,
			"phone": "",
			"count": 1120,
			"number": "0104"
		},
		{
			"lon": 36.9964055,
			"lat": 54.4888437,
			"obj": "ООО «ЖилищникСервис»",
			"addr": "ул. Серафимовича, д. 3",
			"members": 7,
			"phone": "",
			"count": 960,
			"number": "0105"
		},
		{
			"lon": 36.9969399,
			"lat": 54.4890879,
			"obj": "ООО «ЖилищникСервис»",
			"addr": "ул. Серафимовича, д. 3",
			"members": 8,
			"phone": "",
			"count": 1011,
			"number": "0106"
		},
		{
			"lon": 37.0642556,
			"lat": 54.4936871,
			"obj": "ГОУ НПО ТО «ПУ №41»",
			"addr": "ул. Трудовые резервы, д. 35",
			"members": 9,
			"phone": "",
			"count": 1339,
			"number": "0107"
		}
	]
}
